{"Response": {"MetaInfo": {"Timestamp": "2019-05-18T18:56:37.758+0000"}, "View": [{"Result": [{"Location": {"Address": {"AdditionalData": [{"key": "CountryName", "value": "India"}, {"key": "StateName", "value": "Maharashtra"}, {"key": "CountyName", "value": "Amravati"}], "City": "Amravati", "Country": "IND", "County": "Amravati", "District": "Old Amaravati", "Label": "Ravi Nagar Road, Old Amaravati, Amravati 444601, India", "PostalCode": "444601", "State": "MH", "Street": "Ravi Nagar Road"}, "DisplayPosition": {"Latitude": 20.92328, "Longitude": 77.7482}, "LocationId": "NT_870Ing5ilx0OHFO0EkcVrC", "LocationType": "point", "MapView": {"BottomRight": {"Latitude": 20.91973, "Longitude": 77.7497}, "TopLeft": {"Latitude": 20.92643, "Longitude": 77.7481899}}, "NavigationPosition": [{"Latitude": 20.92328, "Longitude": 77.7482}]}, "MatchLevel": "street", "MatchQuality": {"City": 1.0, "State": 1.0, "Street": [0.85]}, "Relevance": 0.58}, {"Location": {"Address": {"AdditionalData": [{"key": "CountryName", "value": "India"}, {"key": "StateName", "value": "Maharashtra"}, {"key": "CountyName", "value": "Amravati"}], "City": "Amravati", "Country": "IND", "County": "Amravati", "District": "Rajapet", "Label": "Ravi Nagar Road, Rajapet, Amravati 444601, India", "PostalCode": "444601", "State": "MH", "Street": "Ravi Nagar Road"}, "DisplayPosition": {"Latitude": 20.92328, "Longitude": 77.7482}, "LocationId": "NT_6-YpZjCv0-QmzwBbVdXyWD", "LocationType": "point", "MapView": {"BottomRight": {"Latitude": 20.91973, "Longitude": 77.7497}, "TopLeft": {"Latitude": 20.92643, "Longitude": 77.7481899}}, "NavigationPosition": [{"Latitude": 20.92328, "Longitude": 77.7482}]}, "MatchLevel": "street", "MatchQuality": {"City": 1.0, "State": 1.0, "Street": [0.85]}, "Relevance": 0.58}, {"Location": {"Address": {"AdditionalData": [{"key": "CountryName", "value": "India"}, {"key": "StateName", "value": "Maharashtra"}, {"key": "CountyName", "value": "Amravati"}], "City": "Amravati", "Country": "IND", "County": "Amravati", "District": "Ganesh Vihar Colony 1", "Label": "Ravi Nagar Road, Ganesh Vihar Colony 1, Amravati 444606, India", "PostalCode": "444606", "State": "MH", "Street": "Ravi Nagar Road"}, "DisplayPosition": {"Latitude": 20.91559, "Longitude": 77.74902}, "LocationId": "NT_wjy3ZX7FC2VoifXlBweOfD", "LocationType": "point", "MapView": {"BottomRight": {"Latitude": 20.91372, "Longitude": 77.7492}, "TopLeft": {"Latitude": 20.91743, "Longitude": 77.74869}}, "NavigationPosition": [{"Latitude": 20.91559, "Longitude": 77.74902}]}, "MatchLevel": "street", "MatchQuality": {"City": 1.0, "State": 1.0, "Street": [0.85]}, "Relevance": 0.58}, {"Location": {"Address": {"AdditionalData": [{"key": "CountryName", "value": "India"}, {"key": "StateName", "value": "Maharashtra"}, {"key": "CountyName", "value": "Amravati"}], "City": "Amravati", "Country": "IND", "County": "Amravati", "District": "Sharda Nagar", "Label": "Ravi Nagar Road, Sharda Nagar, Amravati 444606, India", "PostalCode": "444606", "State": "MH", "Street": "Ravi Nagar Road"}, "DisplayPosition": {"Latitude": 20.91545, "Longitude": 77.74903}, "LocationId": "NT_dfnILa5S6Ubu2odMZMyWID", "LocationType": "point", "MapView": {"BottomRight": {"Latitude": 20.91372, "Longitude": 77.7492}, "TopLeft": {"Latitude": 20.91716, "Longitude": 77.74875}}, "NavigationPosition": [{"Latitude": 20.91545, "Longitude": 77.74903}]}, "MatchLevel": "street", "MatchQuality": {"City": 1.0, "State": 1.0, "Street": [0.85]}, "Relevance": 0.58}, {"Location": {"Address": {"AdditionalData": [{"key": "CountryName", "value": "India"}, {"key": "StateName", "value": "Maharashtra"}, {"key": "CountyName", "value": "Amravati"}], "City": "Amravati", "Country": "IND", "County": "Amravati", "District": "Rajapet", "Label": "Ravi Nagar Road, Rajapet, Amravati 444606, India", "PostalCode": "444606", "State": "MH", "Street": "Ravi Nagar Road"}, "DisplayPosition": {"Latitude": 20.91843, "Longitude": 77.74847}, "LocationId": "NT_NXst2CTmxCYWN3QDEnnUaC", "LocationType": "point", "MapView": {"BottomRight": {"Latitude": 20.91716, "Longitude": 77.74875}, "TopLeft": {"Latitude": 20.91973, "Longitude": 77.74835}}, "NavigationPosition": [{"Latitude": 20.91843, "Longitude": 77.74847}]}, "MatchLevel": "street", "MatchQuality": {"City": 1.0, "State": 1.0, "Street": [0.85]}, "Relevance": 0.58}, {"Location": {"Address": {"AdditionalData": [{"key": "CountryName", "value": "India"}, {"key": "StateName", "value": "Maharashtra"}, {"key": "CountyName", "value": "Amravati"}], "City": "Amravati", "Country": "IND", "County": "Amravati", "District": "Old Amaravati", "Label": "Ravi Nagar Road, Old Amaravati, Amravati 444606, India", "PostalCode": "444606", "State": "MH", "Street": "Ravi Nagar Road"}, "DisplayPosition": {"Latitude": 20.91857, "Longitude": 77.74845}, "LocationId": "NT_tnJIavC4Wmf1xALpBF7ndD", "LocationType": "point", "MapView": {"BottomRight": {"Latitude": 20.91743, "Longitude": 77.74869}, "TopLeft": {"Latitude": 20.91973, "Longitude": 77.74835}}, "NavigationPosition": [{"Latitude": 20.91857, "Longitude": 77.74845}]}, "MatchLevel": "street", "MatchQuality": {"City": 1.0, "State": 1.0, "Street": [0.85]}, "Relevance": 0.58}], "ViewId": 0, "_type": "SearchResultsViewType"}]}}